FMT,TimeUS,I,Status,GMS,GWk,NSats,HDop,Lat,Lng,Alt,Spd,GCrs,VZ,Yaw,U
GPS, 8497641, 0, 3, 221156199, 2252, 18, 1.16, 52.5259684, 13.3143356, 65.51, 0.06527634, 174.7261, 0.064, 0, 1
GPS, 8697741, 0, 3, 221156399, 2252, 18, 1.16, 52.5259684, 13.3143356, 65.49, 0.0230868, 197.6501, -0.044, 0, 1
GPS, 8897723, 0, 3, 221156599, 2252, 18, 0.64, 52.5259685, 13.3143357, 65.49, 0.02701851, 51.009, -0.027, 0, 1
GPS, 9097727, 0, 3, 221156799, 2252, 18, 0.64, 52.5259686, 13.3143357, 65.49, 0.013, 22.61986, -0.043, 0, 1
GPS, 9297781, 0, 3, 221156999, 2252, 18, 0.64, 52.5259687, 13.3143357, 65.48, 0.01529706, 191.3099, -0.063, 0, 1
GPS, 9497876, 0, 3, 221157199, 2252, 18, 0.64, 52.5259687, 13.3143357, 65.47, 0.005, 0, -0.018, 0, 1
GPS, 9697881, 0, 3, 221157399, 2252, 18, 0.64, 52.5259688, 13.3143357, 65.46, 0.03324154, 74.29136, -0.116, 0, 1
GPS, 9897908, 0, 3, 221157599, 2252, 18, 0.64, 52.5259688, 13.3143357, 65.46, 0.005, 0, -0.039, 0, 1
GPS, 10097855, 0, 3, 221157799, 2252, 18, 0.64, 52.5259689, 13.3143357, 65.45, 0.01931321, 338.7495, -0.074, 0, 1
GPS, 10297864, 0, 3, 221157999, 2252, 18, 0.64, 52.525969, 13.3143357, 65.45, 0.009848858, 336.0375, -0.08800001, 0, 1
GPS, 10497975, 0, 3, 221158199, 2252, 18, 0.64, 52.525969, 13.3143357, 65.44, 0.009219545, 319.3987, 0.024, 0, 1
GPS, 10697917, 0, 3, 221158399, 2252, 18, 0.64, 52.525969, 13.3143357, 65.43, 0.01118034, 333.4349, 0.001, 0, 1
GPS, 10898192, 0, 3, 221158599, 2252, 18, 0.64, 52.5259691, 13.3143358, 65.44, 0.02906889, 40.81508, 0.003, 0, 1
GPS, 11098160, 0, 3, 221158799, 2252, 18, 0.64, 52.5259691, 13.3143358, 65.42, 0.009848858, 23.96249, -0.118, 0, 1
GPS, 11298133, 0, 3, 221158999, 2252, 18, 0.64, 52.5259691, 13.3143358, 65.42, 0.02308679, 274.9697, -0.018, 0, 1
GPS, 11498155, 0, 3, 221159199, 2252, 18, 0.64, 52.525969, 13.3143357, 65.41, 0.01442221, 123.6901, -0.137, 0, 1
GPS, 11698141, 0, 3, 221159399, 2252, 18, 0.64, 52.525969, 13.3143358, 65.42, 0.01118034, 116.565, -0.003, 0, 1
GPS, 11898158, 0, 3, 221159599, 2252, 18, 0.64, 52.525969, 13.3143358, 65.4, 0.01711724, 96.70983, -0.034, 0, 1
GPS, 12098175, 0, 3, 221159799, 2252, 18, 0.64, 52.525969, 13.3143358, 65.37, 0.01345363, 318.0128, -0.053, 0, 1
GPS, 12318279, 0, 3, 221159999, 2252, 18, 0.64, 52.525969, 13.3143358, 65.35, 0.02404163, 73.07248, -0.016, 0, 1
GPS, 12498272, 0, 3, 221160199, 2252, 18, 0.64, 52.525969, 13.3143358, 65.34, 0.01118034, 63.43495, -0.002, 0, 1
GPS, 12698176, 0, 3, 221160399, 2252, 18, 0.64, 52.525969, 13.3143358, 65.32, 0.01920937, 308.6598, -0.001, 0, 1
GPS, 12898290, 0, 3, 221160599, 2252, 18, 0.64, 52.525969, 13.3143358, 65.31, 0.04459821, 47.72631, 0.011, 0, 1
GPS, 13098183, 0, 3, 221160799, 2252, 18, 0.64, 52.525969, 13.3143359, 65.3, 0.01552418, 284.9314, -0.027, 0, 1
GPS, 13298182, 0, 3, 221160999, 2252, 18, 0.64, 52.525969, 13.3143359, 65.29, 0.01220656, 55.00798, -0.101, 0, 1
GPS, 13498189, 0, 3, 221161199, 2252, 18, 0.64, 52.525969, 13.3143359, 65.29, 0.04, 36.8699, -0.04, 0, 1
GPS, 13698164, 0, 3, 221161399, 2252, 18, 0.64, 52.5259691, 13.314336, 65.28, 0.01910497, 6.009006, 0.029, 0, 1
GPS, 13898187, 0, 3, 221161599, 2252, 18, 0.64, 52.525969, 13.3143359, 65.26, 0.009219544, 49.3987, -0.127, 0, 1
GPS, 14098227, 0, 3, 221161799, 2252, 18, 0.64, 52.525969, 13.3143359, 65.27, 0.04205948, 28.39302, -0.136, 0, 1
GPS, 14318192, 0, 3, 221161999, 2252, 18, 0.64, 52.525969, 13.314336, 65.27, 0.02941088, 54.68878, 0.02, 0, 1
GPS, 14518228, 0, 3, 221162199, 2252, 18, 0.64, 52.525969, 13.314336, 65.26, 0.0286007, 36.46923, -0.062, 0, 1
GPS, 14698147, 0, 3, 221162399, 2252, 18, 0.64, 52.525969, 13.3143361, 65.26, 0.004472136, 333.4349, -0.038, 0, 1
GPS, 14898135, 0, 3, 221162599, 2252, 18, 0.64, 52.5259689, 13.3143361, 65.25, 0.02863564, 167.9052, -0.015, 0, 1
GPS, 15098170, 0, 3, 221162799, 2252, 18, 0.64, 52.5259688, 13.3143361, 65.23, 0.03935734, 117.2161, -0.086, 0, 1
GPS, 15298196, 0, 3, 221162999, 2252, 18, 0.64, 52.5259687, 13.3143361, 65.23, 0.0286531, 60.75117, -0.042, 0, 1
GPS, 15498192, 0, 3, 221163199, 2252, 18, 0.64, 52.5259686, 13.3143362, 65.24, 0.04341659, 82.05652, -0.071, 0, 1
GPS, 15698192, 0, 3, 221163399, 2252, 18, 0.64, 52.5259685, 13.3143362, 65.23, 0.02968165, 122.6192, -0.018, 0, 1
GPS, 15898207, 0, 3, 221163599, 2252, 18, 0.64, 52.5259684, 13.3143362, 65.21, 0.01972308, 210.4656, 0.051, 0, 1
GPS, 16098256, 0, 3, 221163799, 2252, 18, 0.64, 52.5259683, 13.3143361, 65.18, 0.01627882, 42.51044, -0.06, 0, 1
GPS, 16298123, 0, 3, 221163999, 2252, 18, 0.64, 52.5259682, 13.314336, 65.17, 0.03488553, 332.7004, 0.011, 0, 1
GPS, 16498146, 0, 3, 221164199, 2252, 18, 0.64, 52.5259681, 13.3143359, 65.16, 0.007615773, 246.8014, -0.056, 0, 1
GPS, 16698163, 0, 3, 221164399, 2252, 18, 0.64, 52.5259679, 13.3143359, 65.14, 0.03352611, 162.646, -0.05, 0, 1
GPS, 16898197, 0, 3, 221164599, 2252, 18, 0.64, 52.5259678, 13.3143359, 65.13, 0.02617251, 83.41805, -0.081, 0, 1
GPS, 17098163, 0, 3, 221164799, 2252, 18, 0.64, 52.5259676, 13.3143358, 65.11, 0.03905125, 219.8056, -0.003, 0, 1
GPS, 17298274, 0, 3, 221164999, 2252, 18, 0.64, 52.5259674, 13.3143357, 65.09, 0.005656855, 225, -0.029, 0, 1
GPS, 17498165, 0, 3, 221165199, 2252, 18, 0.64, 52.5259673, 13.3143357, 65.07, 0.02886174, 194.0363, -0.022, 0, 1
GPS, 17698176, 0, 3, 221165399, 2252, 18, 0.64, 52.5259672, 13.3143356, 65.05, 0.01414214, 351.8699, 0.021, 0, 1
GPS, 17898220, 0, 3, 221165599, 2252, 18, 0.64, 52.5259671, 13.3143356, 65.04, 0.009219545, 40.60129, -0.027, 0, 1
GPS, 18098141, 0, 3, 221165799, 2252, 18, 0.64, 52.5259669, 13.3143355, 65.01, 0.02385372, 236.9761, -0.046, 0, 1
GPS, 18318198, 0, 3, 221165999, 2252, 18, 0.64, 52.5259668, 13.3143354, 64.99, 0.01104536, 275.1944, -0.09900001, 0, 1
GPS, 18498187, 0, 3, 221166199, 2252, 18, 0.64, 52.5259667, 13.3143353, 64.97, 0.03649658, 279.4623, 0.021, 0, 1
GPS, 18698271, 0, 3, 221166399, 2252, 18, 0.64, 52.5259666, 13.3143353, 64.95, 0.03328663, 32.73522, -0.052, 0, 1
GPS, 18898130, 0, 3, 221166599, 2252, 18, 0.64, 52.5259664, 13.3143353, 64.94, 0.0358469, 247.0113, -0.027, 0, 1
GPS, 19098136, 0, 3, 221166799, 2252, 18, 0.64, 52.5259662, 13.3143352, 64.91, 0.02630589, 98.74615, -0.06500001, 0, 1
GPS, 19298156, 0, 3, 221166999, 2252, 18, 0.64, 52.5259661, 13.3143353, 64.88, 0.02247221, 57.72435, -0.019, 0, 1
GPS, 19498150, 0, 3, 221167199, 2252, 18, 0.64, 52.525966, 13.3143353, 64.86, 0.009219545, 40.60129, 0.028, 0, 1
GPS, 19698262, 0, 3, 221167399, 2252, 18, 0.64, 52.5259659, 13.3143353, 64.84, 0.01720465, 324.4623, -0.032, 0, 1
GPS, 19898162, 0, 3, 221167599, 2252, 18, 0.64, 52.5259657, 13.3143352, 64.82, 0.04318565, 227.8156, 0.003, 0, 1
GPS, 20077958, 0, 3, 221167799, 2252, 18, 0.64, 52.5259656, 13.3143352, 64.8, 0.02376973, 194.6209, -0.017, 0, 1
GPS, 20298164, 0, 3, 221167999, 2252, 18, 0.64, 52.5259655, 13.3143352, 64.77, 0.02459675, 333.4349, -0.104, 0, 1
GPS, 20498167, 0, 3, 221168199, 2252, 18, 0.64, 52.5259654, 13.3143352, 64.77, 0.01749286, 30.96376, -0.043, 0, 1
GPS, 20698155, 0, 3, 221168399, 2252, 18, 0.64, 52.5259654, 13.3143352, 64.75, 0.03014963, 5.710592, -0.029, 0, 1
GPS, 20898161, 0, 3, 221168599, 2252, 18, 0.64, 52.5259652, 13.3143351, 64.7, 0.03634557, 262.0928, 0.012, 0, 1
GPS, 21098139, 0, 3, 221168799, 2252, 18, 0.64, 52.5259651, 13.3143351, 64.67, 0.02080865, 125.2176, -0.02, 0, 1
GPS, 21298204, 0, 3, 221168999, 2252, 18, 0.64, 52.525965, 13.314335, 64.64, 0.02915476, 329.0363, 0.018, 0, 1
GPS, 21498253, 0, 3, 221169199, 2252, 18, 0.64, 52.5259648, 13.314335, 64.59, 0.0190263, 356.9872, -0.005, 0, 1
GPS, 21698252, 0, 3, 221169399, 2252, 18, 0.64, 52.5259647, 13.3143349, 64.54, 0.02202272, 230.5275, -0.011, 0, 1
GPS, 21898173, 0, 3, 221169599, 2252, 18, 0.64, 52.5259645, 13.3143349, 64.5, 0.03006659, 183.8141, 0.057, 0, 1
GPS, 22098135, 0, 3, 221169799, 2252, 18, 0.64, 52.5259643, 13.3143349, 64.45, 0.01264911, 198.435, -0.042, 0, 1
GPS, 22298171, 0, 3, 221169999, 2252, 18, 0.64, 52.5259641, 13.3143348, 64.39, 0.02954657, 246.0375, 0.001, 0, 1
GPS, 22498133, 0, 3, 221170199, 2252, 18, 0.64, 52.5259639, 13.3143348, 64.36, 0.005385165, 68.19859, 0.058, 0, 1
GPS, 22698172, 0, 3, 221170399, 2252, 18, 0.64, 52.5259637, 13.3143348, 64.3, 0.01640122, 232.4314, -0.017, 0, 1
GPS, 22898162, 0, 3, 221170599, 2252, 18, 0.64, 52.5259635, 13.3143348, 64.28, 0.04951768, 136.6366, 0.05, 0, 1
GPS, 23098191, 0, 3, 221170799, 2252, 18, 0.64, 52.5259633, 13.3143348, 64.22, 0.08417244, 316.4441, -0.162, 0, 1
GPS, 23298269, 0, 3, 221170999, 2252, 18, 0.64, 52.5259631, 13.3143347, 64.18, 0.03182766, 226.273, -0.042, 0, 1
GPS, 23498177, 0, 3, 221171199, 2252, 18, 0.64, 52.5259628, 13.3143346, 64.15, 0.01697056, 225, -0.035, 0, 1
GPS, 23698192, 0, 3, 221171399, 2252, 18, 0.64, 52.5259626, 13.3143347, 64.11, 0.03992493, 22.0679, -0.007, 0, 1
GPS, 23898165, 0, 3, 221171599, 2252, 18, 0.64, 52.5259624, 13.3143348, 64.08, 0.011, 90, -0.008, 0, 1
GPS, 24098129, 0, 3, 221171799, 2252, 18, 0.64, 52.5259622, 13.3143349, 64.04, 0.04707441, 192.2648, -0.054, 0, 1
GPS, 24318232, 0, 3, 221171999, 2252, 18, 0.64, 52.5259619, 13.314335, 64.01, 0.0254951, 101.3099, -0.035, 0, 1
GPS, 24518232, 0, 3, 221172199, 2252, 18, 0.64, 52.5259617, 13.3143351, 63.99, 0.02545585, 45, 0.018, 0, 1
GPS, 24698166, 0, 3, 221172399, 2252, 18, 0.64, 52.5259615, 13.3143351, 63.96, 0.007, 90, -0.14, 0, 1
GPS, 24898220, 0, 3, 221172599, 2252, 18, 0.64, 52.5259613, 13.3143352, 63.95, 0.02624881, 130.3645, -0.059, 0, 1
GPS, 25098270, 0, 3, 221172799, 2252, 18, 0.64, 52.5259611, 13.3143353, 63.94, 0.008602326, 305.5377, -0.029, 0, 1
GPS, 25298119, 0, 3, 221172999, 2252, 18, 0.64, 52.525961, 13.3143354, 63.93, 0.032, 0, -0.024, 0, 1
GPS, 25498173, 0, 3, 221173199, 2252, 18, 0.64, 52.5259609, 13.3143354, 63.92, 0.01780449, 308.1572, -0.087, 0, 1
GPS, 25698184, 0, 3, 221173399, 2252, 18, 0.64, 52.5259608, 13.3143355, 63.92, 0.01118034, 280.3049, -0.046, 0, 1
GPS, 25898215, 0, 3, 221173599, 2252, 18, 0.64, 52.5259607, 13.3143357, 63.94, 0.01392839, 111.0375, 0.022, 0, 1
GPS, 26098170, 0, 3, 221173799, 2252, 18, 0.64, 52.5259606, 13.3143358, 63.93, 0.01341641, 296.5651, 0.031, 0, 1
GPS, 26298128, 0, 3, 221173999, 2252, 18, 0.64, 52.5259606, 13.3143358, 63.9, 0.05830952, 5.906141, -0.07300001, 0, 1
GPS, 26498147, 0, 3, 221174199, 2252, 18, 0.64, 52.5259606, 13.314336, 63.91, 0.04159327, 350.3112, -0.024, 0, 1
GPS, 26698194, 0, 3, 221174399, 2252, 18, 0.64, 52.5259605, 13.3143361, 63.92, 0.05909315, 113.9625, -0.108, 0, 1
GPS, 26898273, 0, 3, 221174599, 2252, 18, 0.64, 52.5259604, 13.3143362, 63.9, 0.02816026, 263.8845, -0.059, 0, 1
GPS, 27098171, 0, 3, 221174799, 2252, 18, 0.64, 52.5259602, 13.3143363, 63.9, 0.04123106, 112.8336, -0.061, 0, 1
GPS, 27298125, 0, 3, 221174999, 2252, 18, 0.64, 52.5259601, 13.3143365, 63.91, 0.02376973, 104.6209, -0.016, 0, 1
GPS, 27498170, 0, 3, 221175199, 2252, 18, 0.64, 52.5259601, 13.3143366, 63.9, 0.06000834, 0.9548413, -0.005, 0, 1
GPS, 27698193, 0, 3, 221175399, 2252, 18, 0.64, 52.5259601, 13.3143367, 63.9, 0.03001666, 209.9817, -0.025, 0, 1
GPS, 27898178, 0, 3, 221175599, 2252, 18, 0.64, 52.52596, 13.3143369, 63.91, 0.04805206, 102.0115, 0.013, 0, 1
GPS, 28098138, 0, 3, 221175799, 2252, 18, 0.64, 52.52596, 13.3143369, 63.9, 0.06300794, 305.9605, -0.013, 0, 1
GPS, 28277884, 0, 3, 221175999, 2252, 18, 0.64, 52.52596, 13.3143369, 63.92, 0.05883026, 301.7989, -0.081, 0, 1
GPS, 28498155, 0, 3, 221176199, 2252, 18, 0.64, 52.52596, 13.3143369, 63.92, 0.04709565, 176.3478, -0.023, 0, 1
GPS, 28698249, 0, 3, 221176399, 2252, 18, 0.64, 52.5259599, 13.3143369, 63.9, 0.02061553, 292.8336, 0.026, 0, 1
GPS, 28898135, 0, 3, 221176599, 2252, 18, 0.64, 52.5259599, 13.3143369, 63.9, 0.05560576, 217.6942, 0.012, 0, 1
GPS, 29098201, 0, 3, 221176799, 2252, 18, 0.64, 52.5259597, 13.3143368, 63.87, 0.02137756, 190.7843, -0.075, 0, 1
GPS, 29298186, 0, 3, 221176999, 2252, 18, 0.64, 52.5259597, 13.3143368, 63.88, 0.07138628, 348.6901, 0.001, 0, 1
GPS, 29498207, 0, 3, 221177199, 2252, 18, 0.64, 52.5259598, 13.3143368, 63.86, 0.05108816, 356.6335, -0.057, 0, 1
GPS, 29698138, 0, 3, 221177399, 2252, 18, 0.64, 52.5259598, 13.3143368, 63.85, 0.0344093, 54.46232, -0.012, 0, 1
GPS, 29898211, 0, 3, 221177599, 2252, 18, 0.64, 52.5259597, 13.3143369, 63.84, 0.007615773, 156.8014, -0.09200001, 0, 1
GPS, 30098209, 0, 3, 221177799, 2252, 18, 0.64, 52.5259597, 13.3143368, 63.82, 0.03962323, 132.9546, -0.136, 0, 1
GPS, 30318289, 0, 3, 221177999, 2252, 18, 0.64, 52.5259596, 13.3143368, 63.82, 0.01345363, 41.98721, -0.023, 0, 1
GPS, 30498213, 0, 3, 221178199, 2252, 18, 0.64, 52.5259595, 13.3143369, 63.81, 0.03701351, 88.45184, -0.021, 0, 1
GPS, 30698195, 0, 3, 221178399, 2252, 18, 0.64, 52.5259594, 13.314337, 63.8, 0.06462198, 111.8014, -0.041, 0, 1
GPS, 30898139, 0, 3, 221178599, 2252, 18, 0.64, 52.5259593, 13.314337, 63.78, 0.007071068, 351.8699, -0.016, 0, 1
GPS, 31098154, 0, 3, 221178799, 2252, 18, 0.64, 52.5259591, 13.3143371, 63.76, 0.08504117, 131.1859, 0.008, 0, 1
GPS, 31298198, 0, 3, 221178999, 2252, 18, 0.64, 52.525959, 13.3143372, 63.77, 0.01843909, 220.6013, 0.014, 0, 1
GPS, 31498130, 0, 3, 221179199, 2252, 18, 0.64, 52.5259589, 13.3143371, 63.76, 0.04272002, 286.3138, -0.046, 0, 1
GPS, 31698171, 0, 3, 221179399, 2252, 18, 0.64, 52.5259589, 13.314337, 63.76, 0.04509989, 356.1859, 0.01, 0, 1
GPS, 31898111, 0, 3, 221179599, 2252, 18, 0.64, 52.5259588, 13.314337, 63.76, 0.02624881, 162.2553, 0.046, 0, 1
GPS, 32098193, 0, 3, 221179799, 2252, 18, 0.64, 52.5259587, 13.314337, 63.73, 0.01941649, 124.5085, -0.09900001, 0, 1
GPS, 32277964, 0, 3, 221179999, 2252, 18, 0.64, 52.5259586, 13.314337, 63.74, 0.01931321, 291.2505, 0.002, 0, 1
GPS, 32498121, 0, 3, 221180199, 2252, 18, 0.64, 52.5259586, 13.314337, 63.75, 0.004, 180, -0.044, 0, 1
GPS, 32698174, 0, 3, 221180399, 2252, 18, 0.64, 52.5259586, 13.314337, 63.74, 0.03312099, 61.11341, -0.048, 0, 1
GPS, 32898160, 0, 3, 221180599, 2252, 18, 0.64, 52.5259586, 13.314337, 63.74, 0.0210238, 25.34617, -0.134, 0, 1
GPS, 33098143, 0, 3, 221180799, 2252, 18, 0.64, 52.5259585, 13.314337, 63.75, 0.01655295, 154.9831, 0.067, 0, 1
GPS, 33298161, 0, 3, 221180999, 2252, 18, 0.64, 52.5259585, 13.314337, 63.74, 0.03848376, 245.4328, 0.019, 0, 1
GPS, 33498140, 0, 3, 221181199, 2252, 18, 0.64, 52.5259584, 13.3143369, 63.75, 0.02202272, 272.6026, 0.089, 0, 1
GPS, 33698171, 0, 3, 221181399, 2252, 18, 0.64, 52.5259584, 13.3143369, 63.73, 0.008485282, 225, -0.103, 0, 1
GPS, 33898170, 0, 3, 221181599, 2252, 18, 0.64, 52.5259584, 13.3143369, 63.75, 0.03244996, 56.30993, -0.05, 0, 1
GPS, 34098278, 0, 3, 221181799, 2252, 18, 0.64, 52.5259583, 13.3143369, 63.73, 0.0210238, 92.7263, -0.09900001, 0, 1
GPS, 34298258, 0, 3, 221181999, 2252, 18, 0.64, 52.5259583, 13.314337, 63.75, 0.01476482, 28.30076, 0.01, 0, 1
GPS, 34518209, 0, 3, 221182199, 2252, 18, 0.64, 52.5259582, 13.314337, 63.74, 0.03820995, 186.009, -0.043, 0, 1
GPS, 34698143, 0, 3, 221182399, 2252, 18, 0.64, 52.5259581, 13.314337, 63.74, 0.04031129, 66.61478, -0.09900001, 0, 1
GPS, 34898145, 0, 3, 221182599, 2252, 18, 0.64, 52.525958, 13.314337, 63.74, 0.01702939, 176.6335, 0, 0, 1
GPS, 35098123, 0, 3, 221182799, 2252, 18, 0.64, 52.5259579, 13.3143371, 63.74, 0.03716181, 66.19405, -0.033, 0, 1
GPS, 35298160, 0, 3, 221182999, 2252, 18, 0.64, 52.5259578, 13.3143372, 63.72, 0.02420744, 38.29016, -0.044, 0, 1
GPS, 35498161, 0, 3, 221183199, 2252, 18, 0.64, 52.5259577, 13.3143372, 63.72, 0.01118034, 169.6951, -0.115, 0, 1
GPS, 35698213, 0, 3, 221183399, 2252, 18, 0.64, 52.5259577, 13.3143372, 63.72, 0.02220361, 125.8376, -0.013, 0, 1
GPS, 35898257, 0, 3, 221183599, 2252, 18, 0.64, 52.5259576, 13.3143373, 63.71, 0.03423449, 186.7098, 0.032, 0, 1
GPS, 36098167, 0, 3, 221183799, 2252, 18, 0.64, 52.5259576, 13.3143372, 63.69, 0.01992486, 342.4744, -0.064, 0, 1
GPS, 36298132, 0, 3, 221183999, 2252, 18, 0.64, 52.5259576, 13.3143373, 63.68, 0.007071068, 261.8699, 0.024, 0, 1
GPS, 36498148, 0, 3, 221184199, 2252, 18, 0.64, 52.5259575, 13.3143373, 63.67, 0.004242641, 135, -0.096, 0, 1
GPS, 36698132, 0, 3, 221184399, 2252, 18, 0.64, 52.5259575, 13.3143373, 63.68, 0.0527731, 9.819301, -0.053, 0, 1
GPS, 36898159, 0, 3, 221184599, 2252, 18, 0.64, 52.5259575, 13.3143373, 63.67, 0.01878829, 25.20112, -0.062, 0, 1
GPS, 37098182, 0, 3, 221184799, 2252, 18, 0.64, 52.5259574, 13.3143373, 63.66, 0.01486607, 70.34617, -0.085, 0, 1
GPS, 37298149, 0, 3, 221184999, 2252, 18, 0.64, 52.5259574, 13.3143373, 63.66, 0.02236068, 349.6952, 0.042, 0, 1
GPS, 37498180, 0, 3, 221185199, 2252, 18, 0.64, 52.5259573, 13.3143374, 63.64, 0.02193171, 65.77225, -0.034, 0, 1
GPS, 37698257, 0, 3, 221185399, 2252, 18, 0.64, 52.5259573, 13.3143374, 63.63, 0.032, 0, 0.009000001, 0, 1
GPS, 37898157, 0, 3, 221185599, 2252, 18, 0.64, 52.5259572, 13.3143374, 63.63, 0.01523155, 293.1986, -0.045, 0, 1
GPS, 38098164, 0, 3, 221185799, 2252, 18, 0.64, 52.5259572, 13.3143374, 63.63, 0.03622155, 6.340191, -0.011, 0, 1
GPS, 38298204, 0, 3, 221185999, 2252, 18, 0.64, 52.5259572, 13.3143373, 63.61, 0.01969772, 23.96249, -0.096, 0, 1
GPS, 38498240, 0, 3, 221186199, 2252, 18, 0.64, 52.5259572, 13.3143373, 63.61, 0.009848858, 203.9625, 0, 0, 1
GPS, 38698203, 0, 3, 221186399, 2252, 18, 0.64, 52.5259571, 13.3143374, 63.6, 0.01077033, 158.1986, 0.064, 0, 1
GPS, 38898153, 0, 3, 221186599, 2252, 18, 0.64, 52.525957, 13.3143373, 63.58, 0.003162278, 341.5651, -0.104, 0, 1
GPS, 39098181, 0, 3, 221186799, 2252, 18, 0.64, 52.525957, 13.3143373, 63.58, 0.002236068, 153.435, 0.035, 0, 1
GPS, 39298213, 0, 3, 221186999, 2252, 18, 0.64, 52.525957, 13.3143373, 63.57, 0.009219544, 229.3987, 0.064, 0, 1
GPS, 39498276, 0, 3, 221187199, 2252, 18, 0.64, 52.5259569, 13.3143373, 63.56, 0.03157531, 349.0459, -0.119, 0, 1
GPS, 39698166, 0, 3, 221187399, 2252, 18, 0.64, 52.5259569, 13.3143373, 63.57, 0.027313, 113.7495, 0.02, 0, 1
GPS, 39898161, 0, 3, 221187599, 2252, 18, 0.64, 52.5259568, 13.3143374, 63.56, 0.03560899, 128.1572, -0.052, 0, 1
GPS, 40098206, 0, 3, 221187799, 2252, 18, 0.64, 52.5259568, 13.3143375, 63.56, 0.0425441, 29.57784, -0.11, 0, 1
GPS, 40298173, 0, 3, 221187999, 2252, 18, 0.64, 52.5259568, 13.3143375, 63.56, 0.008544004, 339.444, -0.039, 0, 1
GPS, 40498165, 0, 3, 221188199, 2252, 18, 0.64, 52.5259568, 13.3143375, 63.55, 0.006708204, 63.43495, -0.046, 0, 1
GPS, 40698152, 0, 3, 221188399, 2252, 18, 0.64, 52.5259567, 13.3143375, 63.54, 0.01252996, 208.6105, -0.014, 0, 1
GPS, 40898136, 0, 3, 221188599, 2252, 18, 0.64, 52.5259566, 13.3143375, 63.54, 0.03465545, 46.16914, -0.119, 0, 1
GPS, 41098169, 0, 3, 221188799, 2252, 18, 0.64, 52.5259566, 13.3143375, 63.56, 0.008062258, 262.875, -0.086, 0, 1
GPS, 41298228, 0, 3, 221188999, 2252, 18, 0.64, 52.5259566, 13.3143375, 63.55, 0.02969849, 45, -0.033, 0, 1
GPS, 41498128, 0, 3, 221189199, 2252, 18, 0.64, 52.5259565, 13.3143375, 63.54, 0.01780449, 128.1572, -0.098, 0, 1
GPS, 41698193, 0, 3, 221189399, 2252, 18, 0.64, 52.5259565, 13.3143376, 63.56, 0.02941088, 144.6888, -0.017, 0, 1
GPS, 41898163, 0, 3, 221189599, 2252, 18, 0.64, 52.5259564, 13.3143375, 63.56, 0.03312099, 298.8866, -0.11, 0, 1
GPS, 42098189, 0, 3, 221189799, 2252, 18, 0.64, 52.5259564, 13.3143375, 63.57, 0.001414214, 225, -0.016, 0, 1
GPS, 42298163, 0, 3, 221189999, 2252, 18, 0.64, 52.5259564, 13.3143375, 63.57, 0.02024846, 327.0948, -0.014, 0, 1
GPS, 42498261, 0, 3, 221190199, 2252, 18, 0.64, 52.5259564, 13.3143375, 63.58, 0.01118034, 63.43495, -0.072, 0, 1
GPS, 42698201, 0, 3, 221190399, 2252, 18, 0.64, 52.5259564, 13.3143375, 63.58, 0.002236068, 63.43495, 0.033, 0, 1
GPS, 42898151, 0, 3, 221190599, 2252, 18, 0.64, 52.5259564, 13.3143375, 63.58, 0.04561798, 243.9967, 0.031, 0, 1
GPS, 43098236, 0, 3, 221190799, 2252, 18, 0.64, 52.5259564, 13.3143374, 63.57, 0.01208305, 204.444, -0.09200001, 0, 1
GPS, 43298157, 0, 3, 221190999, 2252, 18, 0.64, 52.5259564, 13.3143374, 63.58, 0.01280625, 51.34019, -0.055, 0, 1
GPS, 43498125, 0, 3, 221191199, 2252, 18, 0.64, 52.5259564, 13.3143375, 63.59, 0.02280351, 74.74488, -0.132, 0, 1
GPS, 43698196, 0, 3, 221191399, 2252, 18, 0.64, 52.5259563, 13.3143375, 63.6, 0.02061553, 320.9061, -0.052, 0, 1
GPS, 43898168, 0, 3, 221191599, 2252, 18, 0.64, 52.5259563, 13.3143375, 63.61, 0.04920366, 217.5686, 0.07300001, 0, 1
GPS, 44098142, 0, 3, 221191799, 2252, 18, 0.64, 52.5259562, 13.3143374, 63.61, 0.04304649, 239.2645, 0.036, 0, 1
GPS, 44298153, 0, 3, 221191999, 2252, 18, 0.64, 52.5259562, 13.3143373, 63.61, 0.008062258, 277.125, -0.061, 0, 1
GPS, 44518271, 0, 3, 221192199, 2252, 18, 0.64, 52.5259562, 13.3143373, 63.62, 0.0573062, 240.7512, 0.07300001, 0, 1
GPS, 44698204, 0, 3, 221192399, 2252, 18, 0.64, 52.5259561, 13.3143372, 63.61, 0.008246211, 165.9637, -0.13, 0, 1
GPS, 44898268, 0, 3, 221192599, 2252, 18, 0.64, 52.5259561, 13.3143372, 63.63, 0.02617251, 46.54816, -0.011, 0, 1
GPS, 45098186, 0, 3, 221192799, 2252, 18, 0.64, 52.5259561, 13.3143373, 63.63, 0.02640076, 24.62357, -0.09900001, 0, 1
GPS, 45298151, 0, 3, 221192999, 2252, 18, 0.64, 52.525956, 13.3143373, 63.64, 0.01044031, 196.6992, -0.079, 0, 1
GPS, 45498165, 0, 3, 221193199, 2252, 18, 0.64, 52.525956, 13.3143373, 63.65, 0.01077033, 111.8014, -0.033, 0, 1
GPS, 45698149, 0, 3, 221193399, 2252, 18, 0.64, 52.5259559, 13.3143373, 63.63, 0.04925444, 84.17365, -0.168, 0, 1
GPS, 45898127, 0, 3, 221193599, 2252, 18, 0.64, 52.5259559, 13.3143374, 63.65, 0.01843909, 192.5288, 0.048, 0, 1
GPS, 46098137, 0, 3, 221193799, 2252, 18, 0.64, 52.5259558, 13.3143374, 63.65, 0.01118034, 280.3049, -0.028, 0, 1
GPS, 46298181, 0, 3, 221193999, 2252, 18, 0.64, 52.5259558, 13.3143374, 63.66, 0.02039608, 281.3099, -0.01, 0, 1
GPS, 46498207, 0, 3, 221194199, 2252, 18, 0.64, 52.5259557, 13.3143373, 63.65, 0.004123106, 104.0362, -0.057, 0, 1
GPS, 46698282, 0, 3, 221194399, 2252, 18, 0.64, 52.5259557, 13.3143374, 63.65, 0.05162364, 21.59531, -0.08000001, 0, 1
GPS, 46898236, 0, 3, 221194599, 2252, 18, 0.64, 52.5259557, 13.3143374, 63.66, 0.03687818, 167.4712, -0.005, 0, 1
GPS, 47098139, 0, 3, 221194799, 2252, 18, 0.64, 52.5259556, 13.3143375, 63.67, 0.02220361, 125.8376, 0.058, 0, 1
GPS, 47298159, 0, 3, 221194999, 2252, 18, 0.64, 52.5259555, 13.3143375, 63.65, 0.00509902, 258.6901, -0.04, 0, 1
GPS, 47498157, 0, 3, 221195199, 2252, 18, 0.64, 52.5259554, 13.3143375, 63.64, 0.02844293, 259.8753, -0.008, 0, 1
GPS, 47698171, 0, 3, 221195399, 2252, 18, 0.64, 52.5259554, 13.3143375, 63.63, 0.005830952, 149.0362, 0.028, 0, 1
GPS, 47898150, 0, 3, 221195599, 2252, 18, 0.64, 52.5259553, 13.3143375, 63.63, 0.02647641, 79.11446, -0.08000001, 0, 1
GPS, 48098159, 0, 3, 221195799, 2252, 18, 0.64, 52.5259552, 13.3143376, 63.63, 0.01414214, 225, -0.037, 0, 1
GPS, 48318289, 0, 3, 221195999, 2252, 18, 0.64, 52.5259552, 13.3143376, 63.64, 0.015, 216.8699, 0.098, 0, 1
GPS, 48498236, 0, 3, 221196199, 2252, 18, 0.64, 52.5259551, 13.3143376, 63.62, 0.009486834, 71.56505, -0.104, 0, 1
GPS, 48698111, 0, 3, 221196399, 2252, 18, 0.64, 52.5259551, 13.3143376, 63.62, 0.03252691, 315, -0.061, 0, 1
GPS, 48898167, 0, 3, 221196599, 2252, 18, 0.64, 52.525955, 13.3143375, 63.62, 0.04327817, 229.6859, 0.03, 0, 1
GPS, 49098122, 0, 3, 221196799, 2252, 18, 0.64, 52.5259549, 13.3143375, 63.61, 0.03569314, 78.69006, -0.074, 0, 1
GPS, 49298153, 0, 3, 221196999, 2252, 18, 0.64, 52.5259549, 13.3143376, 63.6, 0.02121321, 81.8699, -0.074, 0, 1
GPS, 49498161, 0, 3, 221197199, 2252, 18, 0.64, 52.5259549, 13.3143377, 63.62, 0.04201191, 1.363927, -0.047, 0, 1
GPS, 49698214, 0, 3, 221197399, 2252, 18, 0.64, 52.5259548, 13.3143377, 63.62, 0.03140064, 189.1624, -0.064, 0, 1
GPS, 49898167, 0, 3, 221197599, 2252, 18, 0.64, 52.5259548, 13.3143377, 63.61, 0.01979899, 315, 0.003, 0, 1
GPS, 50098232, 0, 3, 221197799, 2252, 18, 0.64, 52.5259548, 13.3143377, 63.6, 0.037, 0, -0.029, 0, 1
GPS, 50298248, 0, 3, 221197999, 2252, 18, 0.64, 52.5259547, 13.3143377, 63.59, 0.02729469, 98.42696, 0.006, 0, 1
GPS, 50498155, 0, 3, 221198199, 2252, 18, 0.64, 52.5259546, 13.3143377, 63.59, 0.03067572, 199.0256, -0.05, 0, 1
GPS, 50698162, 0, 3, 221198399, 2252, 18, 0.64, 52.5259545, 13.3143377, 63.59, 0.01838478, 45, -0.135, 0, 1
GPS, 50898241, 0, 3, 221198599, 2252, 18, 0.64, 52.5259545, 13.3143378, 63.6, 0.01220656, 55.00798, -0.112, 0, 1
GPS, 51098212, 0, 3, 221198799, 2252, 18, 0.64, 52.5259544, 13.3143378, 63.6, 0.03420526, 15.25512, -0.059, 0, 1
GPS, 51298197, 0, 3, 221198999, 2252, 18, 0.64, 52.5259544, 13.3143378, 63.6, 0.009219545, 319.3987, -0.042, 0, 1
GPS, 51498164, 0, 3, 221199199, 2252, 18, 0.64, 52.5259543, 13.3143378, 63.59, 0.06168469, 163.0338, -0.07, 0, 1
GPS, 51698177, 0, 3, 221199399, 2252, 18, 0.64, 52.5259542, 13.3143378, 63.59, 0.02012461, 26.56505, 0.015, 0, 1
GPS, 51898169, 0, 3, 221199599, 2252, 18, 0.64, 52.5259541, 13.3143378, 63.58, 0.01456022, 164.0546, -0.012, 0, 1
GPS, 52098243, 0, 3, 221199799, 2252, 18, 0.64, 52.525954, 13.3143378, 63.58, 0.02236068, 349.6952, -0.058, 0, 1
GPS, 52298126, 0, 3, 221199999, 2252, 18, 0.64, 52.5259539, 13.3143378, 63.58, 0.03312099, 28.88658, -0.053, 0, 1
GPS, 52498181, 0, 3, 221200199, 2252, 18, 0.64, 52.5259538, 13.3143379, 63.56, 0.02475884, 133.3634, -0.081, 0, 1
GPS, 52677987, 0, 3, 221200399, 2252, 18, 0.64, 52.5259538, 13.3143379, 63.56, 0.06447481, 336.218, -0.07300001, 0, 1
GPS, 52898209, 0, 3, 221200599, 2252, 18, 0.64, 52.5259538, 13.3143378, 63.56, 0.04101219, 315, -0.051, 0, 1
GPS, 53098149, 0, 3, 221200799, 2252, 18, 0.64, 52.5259537, 13.3143378, 63.56, 0.05281099, 71.22196, -0.036, 0, 1
GPS, 53298103, 0, 3, 221201000, 2252, 18, 0.64, 52.5259537, 13.3143379, 63.56, 0.02968165, 122.6192, -0.08000001, 0, 1
GPS, 53498166, 0, 3, 221201199, 2252, 18, 0.64, 52.5259535, 13.3143379, 63.55, 0.02385372, 236.9761, -0.118, 0, 1
GPS, 53698162, 0, 3, 221201399, 2252, 18, 0.64, 52.5259535, 13.3143378, 63.54, 0.01063015, 311.1859, -0.083, 0, 1
GPS, 53898220, 0, 3, 221201599, 2252, 18, 0.64, 52.5259534, 13.3143378, 63.55, 0.01720465, 125.5377, -0.01, 0, 1
GPS, 54098193, 0, 3, 221201800, 2252, 18, 0.64, 52.5259533, 13.3143378, 63.53, 0.02147091, 152.2415, -0.106, 0, 1
GPS, 54318277, 0, 3, 221202000, 2252, 18, 0.64, 52.5259532, 13.3143378, 63.53, 0.02202272, 39.47246, 0.021, 0, 1
GPS, 54498147, 0, 3, 221202200, 2252, 18, 0.64, 52.5259532, 13.3143378, 63.52, 0.006324556, 71.56505, -0.146, 0, 1
GPS, 54698196, 0, 3, 221202400, 2252, 18, 0.64, 52.5259531, 13.3143378, 63.53, 0.027313, 66.2505, -0.057, 0, 1
GPS, 54898175, 0, 3, 221202600, 2252, 18, 0.64, 52.5259531, 13.3143379, 63.52, 0.0559017, 63.43495, 0.008, 0, 1
GPS, 55098202, 0, 3, 221202800, 2252, 18, 0.64, 52.5259531, 13.3143379, 63.5, 0.03312099, 151.1134, -0.08800001, 0, 1
GPS, 55298191, 0, 3, 221203000, 2252, 18, 0.64, 52.525953, 13.3143379, 63.51, 0.05316014, 16.38954, -0.112, 0, 1
GPS, 55477922, 0, 3, 221203200, 2252, 18, 0.64, 52.525953, 13.3143379, 63.52, 0.03061046, 218.3675, -0.011, 0, 1
GPS, 55698255, 0, 3, 221203400, 2252, 18, 0.64, 52.5259529, 13.3143378, 63.5, 0.03701351, 178.4518, -0.064, 0, 1
GPS, 55898145, 0, 3, 221203600, 2252, 18, 0.64, 52.5259528, 13.3143378, 63.49, 0.04441847, 121.185, -0.03, 0, 1
GPS, 56098164, 0, 3, 221203800, 2252, 18, 0.64, 52.5259528, 13.3143378, 63.48, 0.01, 53.1301, -0.1, 0, 1
GPS, 56298179, 0, 3, 221204000, 2252, 18, 0.64, 52.5259528, 13.3143378, 63.48, 0.03667424, 25.86636, -0.155, 0, 1
GPS, 56498204, 0, 3, 221204200, 2252, 18, 0.64, 52.5259528, 13.3143378, 63.49, 0.02729469, 61.55707, -0.006, 0, 1
GPS, 56698163, 0, 3, 221204400, 2252, 18, 0.64, 52.5259528, 13.3143378, 63.47, 0.01555635, 315, -0.117, 0, 1
GPS, 56898127, 0, 3, 221204600, 2252, 18, 0.64, 52.5259529, 13.3143377, 63.48, 0.08697701, 342.6067, -0.086, 0, 1
GPS, 57098137, 0, 3, 221204800, 2252, 18, 0.64, 52.5259529, 13.3143377, 63.48, 0.03820995, 83.99099, -0.047, 0, 1
GPS, 57298172, 0, 3, 221205000, 2252, 18, 0.64, 52.5259529, 13.3143377, 63.46, 0.0388973, 133.9584, -0.06, 0, 1
GPS, 57498254, 0, 3, 221205200, 2252, 18, 0.64, 52.5259529, 13.3143378, 63.45, 0.06087693, 14.26451, -0.013, 0, 1
GPS, 57698205, 0, 3, 221205400, 2252, 18, 0.64, 52.5259529, 13.3143377, 63.44, 0.0354683, 291.5014, -0.046, 0, 1
GPS, 57898187, 0, 3, 221205600, 2252, 18, 0.64, 52.5259529, 13.3143376, 63.43, 0.03894868, 131.8779, -0.063, 0, 1
GPS, 58098117, 0, 3, 221205800, 2252, 18, 0.64, 52.5259529, 13.3143376, 63.43, 0.006082762, 170.5377, -0.056, 0, 1
GPS, 58298155, 0, 3, 221206000, 2252, 18, 0.64, 52.5259528, 13.3143376, 63.42, 0.04049692, 122.9052, 0.068, 0, 1
GPS, 58498130, 0, 3, 221206200, 2252, 18, 0.64, 52.5259528, 13.3143376, 63.4, 0.0156205, 140.1944, -0.041, 0, 1
GPS, 58698151, 0, 3, 221206400, 2252, 18, 0.64, 52.5259528, 13.3143376, 63.39, 0.02701851, 87.8789, -0.058, 0, 1
GPS, 58898175, 0, 3, 221206600, 2252, 18, 0.64, 52.5259528, 13.3143377, 63.38, 0.03522783, 34.59229, -0.079, 0, 1
GPS, 59098207, 0, 3, 221206800, 2252, 18, 0.64, 52.5259529, 13.3143376, 63.38, 0.07324617, 345.774, -0.052, 0, 1
GPS, 59298253, 0, 3, 221207000, 2252, 18, 0.64, 52.5259529, 13.3143375, 63.35, 0.02353721, 257.7352, -0.103, 0, 1
GPS, 59477925, 0, 3, 221207200, 2252, 18, 0.64, 52.5259529, 13.3143374, 63.36, 0.01140175, 254.7449, -0.005, 0, 1
GPS, 59698147, 0, 3, 221207400, 2252, 18, 0.64, 52.5259529, 13.3143374, 63.35, 0.02745906, 123.1113, -0.115, 0, 1
GPS, 59898142, 0, 3, 221207600, 2252, 18, 0.64, 52.5259529, 13.3143374, 63.36, 0.05147815, 29.0546, -0.068, 0, 1
GPS, 60098134, 0, 3, 221207800, 2252, 18, 0.64, 52.5259529, 13.3143373, 63.34, 0.02969849, 315, -0.132, 0, 1
GPS, 60298127, 0, 3, 221208000, 2252, 18, 0.64, 52.5259529, 13.3143372, 63.36, 0.03820995, 276.009, -0.075, 0, 1
GPS, 60498209, 0, 3, 221208200, 2252, 18, 0.64, 52.5259529, 13.3143371, 63.35, 0.01334166, 347.0054, -0.06900001, 0, 1
GPS, 60698211, 0, 3, 221208400, 2252, 18, 0.64, 52.5259529, 13.314337, 63.36, 0.01910497, 173.991, 0.046, 0, 1
GPS, 60877907, 0, 3, 221208600, 2252, 18, 0.64, 52.5259529, 13.314337, 63.35, 0.01272792, 135, -0.022, 0, 1
GPS, 61098218, 0, 3, 221208800, 2252, 18, 0.64, 52.5259529, 13.3143369, 63.33, 0.01414214, 278.1301, -0.019, 0, 1
GPS, 61298155, 0, 3, 221209000, 2252, 18, 0.64, 52.5259529, 13.3143369, 63.32, 0.0349285, 23.62938, -0.061, 0, 1
GPS, 61498117, 0, 3, 221209200, 2252, 18, 0.64, 52.5259529, 13.3143369, 63.32, 0.02353721, 102.2648, -0.058, 0, 1
GPS, 61698128, 0, 3, 221209400, 2252, 18, 0.64, 52.525953, 13.3143369, 63.34, 0.07223573, 21.9487, -0.054, 0, 1
GPS, 61898190, 0, 3, 221209600, 2252, 18, 0.64, 52.525953, 13.3143368, 63.35, 0.0304795, 228.9909, -0.029, 0, 1
GPS, 62098165, 0, 3, 221209800, 2252, 18, 0.64, 52.5259529, 13.3143367, 63.34, 0.05115663, 184.4846, 0.005, 0, 1
GPS, 62298235, 0, 3, 221210000, 2252, 18, 0.64, 52.5259528, 13.3143366, 63.33, 0.03640055, 322.8153, -0.013, 0, 1
GPS, 62498203, 0, 3, 221210200, 2252, 18, 0.64, 52.5259528, 13.3143366, 63.33, 0.01204159, 265.2364, 0.013, 0, 1
GPS, 62698160, 0, 3, 221210400, 2252, 18, 0.64, 52.5259528, 13.3143365, 63.34, 0.03613862, 14.42077, 0.025, 0, 1
GPS, 62898261, 0, 3, 221210600, 2252, 18, 0.64, 52.5259528, 13.3143365, 63.34, 0.03067572, 199.0256, -0.104, 0, 1
GPS, 63098136, 0, 3, 221210800, 2252, 18, 0.64, 52.5259528, 13.3143364, 63.35, 0.001414214, 315, -0.007, 0, 1
GPS, 63298176, 0, 3, 221211000, 2252, 18, 0.64, 52.5259528, 13.3143364, 63.34, 0.01603122, 356.4237, -0.032, 0, 1
GPS, 63498254, 0, 3, 221211200, 2252, 18, 0.64, 52.5259527, 13.3143363, 63.34, 0.0317805, 257.2757, -0.054, 0, 1
GPS, 63698213, 0, 3, 221211400, 2252, 18, 0.64, 52.5259527, 13.3143362, 63.34, 0.005830952, 300.9637, -0.046, 0, 1
GPS, 63898150, 0, 3, 221211600, 2252, 18, 0.64, 52.5259527, 13.3143362, 63.35, 0.02061553, 14.03624, -0.09, 0, 1
GPS, 64098173, 0, 3, 221211800, 2252, 18, 0.64, 52.5259526, 13.3143361, 63.36, 0.01403567, 184.0856, -0.043, 0, 1
GPS, 64298085, 0, 3, 221212000, 2252, 18, 0.64, 52.5259526, 13.3143361, 63.38, 0.01140175, 307.875, -0.074, 0, 1
GPS, 64498219, 0, 3, 221212200, 2252, 18, 0.64, 52.5259525, 13.314336, 63.38, 0.03046309, 246.8014, 0.004, 0, 1
GPS, 64698234, 0, 3, 221212400, 2252, 18, 0.64, 52.5259525, 13.3143359, 63.39, 0.02061553, 14.03624, -0.02, 0, 1
GPS, 64898161, 0, 3, 221212600, 2252, 18, 0.64, 52.5259525, 13.3143359, 63.41, 0.01421267, 140.7106, -0.043, 0, 1
GPS, 65098164, 0, 3, 221212800, 2252, 18, 0.64, 52.5259525, 13.3143359, 63.42, 0.01345363, 131.9872, -0.041, 0, 1
GPS, 65298155, 0, 3, 221213000, 2252, 18, 0.64, 52.5259524, 13.314336, 63.44, 0.03041381, 80.53767, -0.009000001, 0, 1
GPS, 65498224, 0, 3, 221213200, 2252, 18, 0.64, 52.5259523, 13.3143359, 63.42, 0.06003333, 178.0908, -0.011, 0, 1
GPS, 65698168, 0, 3, 221213400, 2252, 18, 0.64, 52.5259522, 13.314336, 63.42, 0.04675468, 131.5318, -0.05, 0, 1
GPS, 65898088, 0, 3, 221213600, 2252, 18, 0.64, 52.5259521, 13.314336, 63.41, 0.01303841, 122.4712, -0.056, 0, 1
GPS, 66098168, 0, 3, 221213800, 2252, 18, 0.64, 52.5259521, 13.3143359, 63.42, 0.01581139, 18.43495, -0.056, 0, 1
GPS, 66277940, 0, 3, 221214000, 2252, 18, 0.64, 52.525952, 13.3143359, 63.42, 0.05091169, 135, -0.072, 0, 1
GPS, 66498220, 0, 3, 221214200, 2252, 18, 0.64, 52.5259519, 13.3143359, 63.41, 0.009848858, 336.0375, -0.081, 0, 1
GPS, 66698158, 0, 3, 221214400, 2252, 18, 0.64, 52.5259519, 13.3143359, 63.42, 0.02830194, 57.99461, -0.038, 0, 1
GPS, 66898191, 0, 3, 221214600, 2252, 18, 0.64, 52.5259519, 13.3143359, 63.41, 0.01941649, 11.88866, -0.026, 0, 1
GPS, 67098165, 0, 3, 221214800, 2252, 18, 0.64, 52.5259519, 13.3143358, 63.41, 0.01726268, 169.992, -0.064, 0, 1
GPS, 67298159, 0, 3, 221215000, 2252, 18, 0.64, 52.5259518, 13.3143358, 63.42, 0.03328663, 147.2648, -0.009000001, 0, 1
GPS, 67498140, 0, 3, 221215200, 2252, 18, 0.64, 52.5259517, 13.3143358, 63.43, 0.05269725, 33.38851, -0.064, 0, 1
GPS, 67677939, 0, 3, 221215400, 2252, 18, 0.64, 52.5259517, 13.3143358, 63.42, 0.01345363, 221.9872, -0.018, 0, 1
GPS, 67898173, 0, 3, 221215600, 2252, 18, 0.64, 52.5259516, 13.3143358, 63.41, 0.01886796, 147.9946, -0.021, 0, 1
GPS, 68077944, 0, 3, 221215800, 2252, 18, 0.64, 52.5259516, 13.3143357, 63.41, 0.03721559, 239.3003, 0.039, 0, 1
GPS, 68298162, 0, 3, 221216000, 2252, 18, 0.64, 52.5259515, 13.3143356, 63.4, 0.04964877, 18.79988, -0.061, 0, 1
GPS, 68477911, 0, 3, 221216200, 2252, 18, 0.64, 52.5259515, 13.3143356, 63.4, 0.03041381, 27.40757, 0.06, 0, 1
GPS, 68677908, 0, 3, 221216400, 2252, 18, 0.64, 52.5259515, 13.3143356, 63.39, 0.04210701, 175.9144, 0.029, 0, 1
GPS, 68898143, 0, 3, 221216600, 2252, 18, 0.64, 52.5259513, 13.3143356, 63.37, 0.03569314, 168.6901, -0.037, 0, 1
GPS, 69077888, 0, 3, 221216800, 2252, 18, 0.64, 52.5259512, 13.3143356, 63.38, 0.004123106, 14.03624, -0.115, 0, 1
GPS, 69298124, 0, 3, 221217000, 2252, 18, 0.64, 52.5259512, 13.3143356, 63.39, 0.04802083, 31.373, -0.08000001, 0, 1
GPS, 69498124, 0, 3, 221217200, 2252, 18, 0.64, 52.5259512, 13.3143356, 63.38, 0.03130495, 116.565, -0.06900001, 0, 1
GPS, 69698189, 0, 3, 221217400, 2252, 18, 0.64, 52.5259511, 13.3143355, 63.36, 0.072, 270, -0.137, 0, 1
GPS, 69898207, 0, 3, 221217600, 2252, 18, 0.64, 52.525951, 13.3143354, 63.37, 0.03721559, 59.30027, -0.018, 0, 1
GPS, 70098282, 0, 3, 221217800, 2252, 18, 0.64, 52.525951, 13.3143354, 63.36, 0.05060633, 217.7757, -0.033, 0, 1
GPS, 70298199, 0, 3, 221218000, 2252, 18, 0.64, 52.5259509, 13.3143354, 63.35, 0.01802776, 19.44003, -0.118, 0, 1
GPS, 70498132, 0, 3, 221218200, 2252, 18, 0.64, 52.5259509, 13.3143353, 63.35, 0.0317805, 294.1455, -0.024, 0, 1
GPS, 70698157, 0, 3, 221218400, 2252, 18, 0.64, 52.5259508, 13.3143352, 63.34, 0.03401471, 204.3046, -0.079, 0, 1
GPS, 70898160, 0, 3, 221218600, 2252, 18, 0.64, 52.5259507, 13.3143352, 63.34, 0.01081665, 213.6901, 0.013, 0, 1
GPS, 71098114, 0, 3, 221218800, 2252, 18, 0.64, 52.5259506, 13.3143352, 63.34, 0.0472017, 36.38435, 0, 0, 1
GPS, 71298177, 0, 3, 221219000, 2252, 18, 0.64, 52.5259507, 13.3143352, 63.33, 0.03395585, 346.373, -0.048, 0, 1
GPS, 71498139, 0, 3, 221219200, 2252, 18, 0.64, 52.5259506, 13.3143352, 63.33, 0.04341659, 51.54629, -0.063, 0, 1
GPS, 71698201, 0, 3, 221219400, 2252, 18, 0.64, 52.5259506, 13.3143352, 63.34, 0.01486607, 199.6538, -0.034, 0, 1
GPS, 71898170, 0, 3, 221219600, 2252, 18, 0.64, 52.5259505, 13.3143352, 63.34, 0.014, 90, -0.035, 0, 1
GPS, 72098226, 0, 3, 221219800, 2252, 18, 0.64, 52.5259505, 13.3143353, 63.32, 0.02418678, 150.2551, -0.112, 0, 1
GPS, 72318291, 0, 3, 221220000, 2252, 18, 0.64, 52.5259504, 13.3143353, 63.33, 0.01252996, 118.6105, -0.082, 0, 1
GPS, 72498125, 0, 3, 221220200, 2252, 18, 0.64, 52.5259504, 13.3143353, 63.32, 0.01769181, 222.7094, -0.006, 0, 1
GPS, 72698127, 0, 3, 221220400, 2252, 18, 0.64, 52.5259503, 13.3143353, 63.33, 0.02778489, 329.7436, -0.047, 0, 1
GPS, 72898170, 0, 3, 221220600, 2252, 18, 0.64, 52.5259503, 13.3143352, 63.31, 0.04022437, 235.1247, -0.07700001, 0, 1
GPS, 73077886, 0, 3, 221220800, 2252, 18, 0.64, 52.5259502, 13.3143351, 63.3, 0.01552418, 194.9314, 0.031, 0, 1
GPS, 73298189, 0, 3, 221221000, 2252, 18, 0.64, 52.5259502, 13.3143352, 63.29, 0.06008328, 161.565, 0.001, 0, 1
GPS, 73498209, 0, 3, 221221200, 2252, 18, 0.64, 52.52595, 13.3143352, 63.28, 0.01931321, 201.2505, 0.006, 0, 1
GPS, 73698262, 0, 3, 221221400, 2252, 18, 0.64, 52.52595, 13.3143352, 63.28, 0.03106445, 123.1785, 0.016, 0, 1
GPS, 73898162, 0, 3, 221221600, 2252, 18, 0.64, 52.5259499, 13.3143353, 63.28, 0.022, 90, -0.054, 0, 1
GPS, 74098133, 0, 3, 221221800, 2252, 18, 0.64, 52.5259499, 13.3143353, 63.28, 0.06001667, 10.56101, -0.068, 0, 1
GPS, 74298140, 0, 3, 221222000, 2252, 18, 0.64, 52.5259499, 13.3143354, 63.28, 0.01749286, 30.96376, -0.015, 0, 1
GPS, 74477945, 0, 3, 221222200, 2252, 18, 0.64, 52.5259499, 13.3143354, 63.28, 0.01615549, 248.1986, -0.068, 0, 1
GPS, 74698188, 0, 3, 221222400, 2252, 18, 0.64, 52.5259498, 13.3143354, 63.28, 0.002, 90, -0.087, 0, 1
GPS, 74898168, 0, 3, 221222600, 2252, 18, 0.64, 52.5259498, 13.3143354, 63.29, 0.02334524, 9.865806, -0.03, 0, 1
GPS, 75098168, 0, 3, 221222800, 2252, 18, 0.64, 52.5259498, 13.3143354, 63.28, 0.02701851, 357.8789, 0.007, 0, 1
GPS, 75298135, 0, 3, 221223000, 2252, 18, 0.64, 52.5259497, 13.3143354, 63.28, 0.02915476, 354.0939, -0.006, 0, 1
GPS, 75498234, 0, 3, 221223200, 2252, 18, 0.64, 52.5259497, 13.3143354, 63.27, 0.02720294, 107.1027, -0.078, 0, 1
GPS, 75698134, 0, 3, 221223400, 2252, 18, 0.64, 52.5259496, 13.3143355, 63.29, 0.009000001, 0, -0.024, 0, 1
GPS, 75877932, 0, 3, 221223600, 2252, 18, 0.64, 52.5259495, 13.3143354, 63.29, 0.0222036, 215.8377, -0.019, 0, 1
GPS, 76098229, 0, 3, 221223800, 2252, 18, 0.64, 52.5259494, 13.3143354, 63.29, 0.02126029, 221.1859, -0.017, 0, 1
GPS, 76298193, 0, 3, 221224000, 2252, 18, 0.64, 52.5259494, 13.3143354, 63.3, 0.01711724, 186.7098, 0.015, 0, 1
GPS, 76498164, 0, 3, 221224200, 2252, 18, 0.64, 52.5259493, 13.3143354, 63.31, 0.02901724, 358.0251, -0.039, 0, 1
GPS, 76698184, 0, 3, 221224400, 2252, 18, 0.64, 52.5259493, 13.3143354, 63.3, 0.01220656, 214.992, -0.081, 0, 1
GPS, 76898156, 0, 3, 221224600, 2252, 18, 0.64, 52.5259492, 13.3143354, 63.31, 0.01131371, 225, 0.02, 0, 1
GPS, 77098219, 0, 3, 221224800, 2252, 18, 0.64, 52.5259492, 13.3143354, 63.3, 0.01811077, 96.34018, -0.056, 0, 1
GPS, 77298219, 0, 3, 221225000, 2252, 18, 0.64, 52.5259491, 13.3143354, 63.31, 0.03689174, 212.8286, -0.033, 0, 1
GPS, 77498192, 0, 3, 221225200, 2252, 18, 0.64, 52.5259491, 13.3143354, 63.32, 0.02154066, 68.19859, 0.006, 0, 1
GPS, 77698217, 0, 3, 221225400, 2252, 18, 0.64, 52.5259491, 13.3143355, 63.33, 0.02570992, 103.4957, 0.057, 0, 1
GPS, 77898144, 0, 3, 221225600, 2252, 18, 0.64, 52.5259491, 13.3143356, 63.32, 0.033, 180, -0.032, 0, 1
GPS, 78098175, 0, 3, 221225800, 2252, 18, 0.64, 52.525949, 13.3143357, 63.33, 0.04661545, 144.6052, 0, 0, 1
GPS, 78298136, 0, 3, 221226000, 2252, 18, 0.64, 52.525949, 13.3143357, 63.34, 0.01392839, 111.0375, -0.054, 0, 1
GPS, 78477897, 0, 3, 221226200, 2252, 18, 0.64, 52.525949, 13.3143358, 63.34, 0.01612452, 150.2551, -0.032, 0, 1
GPS, 78698147, 0, 3, 221226400, 2252, 18, 0.64, 52.525949, 13.3143358, 63.34, 0.02360085, 323.6157, -0.061, 0, 1
GPS, 78898149, 0, 3, 221226600, 2252, 18, 0.64, 52.525949, 13.3143358, 63.34, 0.03061046, 231.6325, -0.012, 0, 1
GPS, 79098251, 0, 3, 221226800, 2252, 18, 0.64, 52.5259489, 13.3143358, 63.34, 0.01280625, 141.3402, 0.011, 0, 1
GPS, 79298147, 0, 3, 221227000, 2252, 18, 0.64, 52.5259489, 13.3143358, 63.35, 0.008246211, 104.0362, 0, 0, 1
GPS, 79498226, 0, 3, 221227200, 2252, 18, 0.64, 52.5259489, 13.3143358, 63.35, 0.03140064, 307.2348, -0.027, 0, 1
GPS, 79698175, 0, 3, 221227400, 2252, 18, 0.64, 52.5259488, 13.3143357, 63.34, 0.02624881, 229.6355, -0.021, 0, 1
GPS, 79877907, 0, 3, 221227600, 2252, 18, 0.64, 52.5259488, 13.3143357, 63.35, 0.02140094, 52.59464, 0.044, 0, 1
GPS, 80098153, 0, 3, 221227800, 2252, 18, 0.64, 52.5259487, 13.3143357, 63.36, 0.01612451, 299.7449, 0.005, 0, 1
GPS, 80298180, 0, 3, 221228000, 2252, 18, 0.64, 52.5259487, 13.3143357, 63.36, 0.02024846, 32.90524, -0.08400001, 0, 1
GPS, 80498226, 0, 3, 221228200, 2252, 18, 0.64, 52.5259486, 13.3143357, 63.37, 0.01414214, 351.8699, -0.006, 0, 1
GPS, 80698221, 0, 3, 221228400, 2252, 18, 0.64, 52.5259486, 13.3143356, 63.37, 0.0210238, 272.7263, 0.031, 0, 1
GPS, 80898243, 0, 3, 221228600, 2252, 18, 0.64, 52.5259485, 13.3143356, 63.38, 0.008, 270, -0.047, 0, 1
GPS, 81098154, 0, 3, 221228800, 2252, 18, 0.64, 52.5259485, 13.3143356, 63.38, 0.01414214, 98.1301, -0.102, 0, 1
GPS, 81298160, 0, 3, 221229000, 2252, 18, 0.64, 52.5259484, 13.3143356, 63.39, 0.02284732, 23.19859, -0.116, 0, 1
GPS, 81498131, 0, 3, 221229200, 2252, 18, 0.64, 52.5259484, 13.3143356, 63.41, 0.02154066, 21.80141, -0.038, 0, 1
GPS, 81698186, 0, 3, 221229400, 2252, 18, 0.64, 52.5259484, 13.3143356, 63.41, 0.02334524, 80.13419, -0.111, 0, 1
GPS, 81898137, 0, 3, 221229600, 2252, 18, 0.64, 52.5259484, 13.3143357, 63.41, 0.04687217, 56.30993, -0.121, 0, 1
GPS, 82098140, 0, 3, 221229800, 2252, 18, 0.64, 52.5259483, 13.3143358, 63.42, 0.02789265, 165.4655, -0.037, 0, 1
GPS, 82298161, 0, 3, 221230000, 2252, 18, 0.64, 52.5259483, 13.3143358, 63.43, 0.03820995, 6.009006, -0.085, 0, 1
GPS, 82498192, 0, 3, 221230200, 2252, 18, 0.64, 52.5259483, 13.3143358, 63.44, 0.01216552, 189.4623, -0.003, 0, 1
GPS, 82677924, 0, 3, 221230400, 2252, 18, 0.64, 52.5259483, 13.3143359, 63.44, 0.04272002, 106.3138, -0.066, 0, 1
GPS, 82898195, 0, 3, 221230600, 2252, 18, 0.64, 52.5259482, 13.314336, 63.45, 0.02884441, 56.30993, -0.102, 0, 1
GPS, 83098137, 0, 3, 221230800, 2252, 18, 0.64, 52.5259482, 13.3143361, 63.46, 0.01964688, 165.2564, -0.068, 0, 1
GPS, 83298146, 0, 3, 221231000, 2252, 18, 0.64, 52.5259482, 13.3143361, 63.46, 0.01216552, 80.53767, -0.038, 0, 1
GPS, 83498128, 0, 3, 221231200, 2252, 18, 0.64, 52.5259481, 13.3143362, 63.46, 0.01612452, 187.125, 0.012, 0, 1
GPS, 83698132, 0, 3, 221231400, 2252, 18, 0.64, 52.5259481, 13.3143361, 63.46, 0.02707397, 265.7636, -0.016, 0, 1
GPS, 83898183, 0, 3, 221231600, 2252, 18, 0.64, 52.525948, 13.3143361, 63.46, 0.01746425, 283.2405, -0.114, 0, 1
GPS, 84077901, 0, 3, 221231800, 2252, 18, 0.64, 52.525948, 13.3143361, 63.46, 0.01486607, 47.72631, -0.034, 0, 1
GPS, 84298205, 0, 3, 221232000, 2252, 18, 0.64, 52.525948, 13.3143361, 63.47, 0.002828427, 315, 0.01, 0, 1
GPS, 84498166, 0, 3, 221232200, 2252, 18, 0.64, 52.5259479, 13.3143361, 63.46, 0.01029563, 150.9454, -0.085, 0, 1
GPS, 84698264, 0, 3, 221232400, 2252, 18, 0.64, 52.5259478, 13.3143361, 63.46, 0.01746425, 246.3706, -0.014, 0, 1
GPS, 84898162, 0, 3, 221232600, 2252, 18, 0.64, 52.5259478, 13.3143361, 63.46, 0.03862642, 21.2505, -0.034, 0, 1
GPS, 85098123, 0, 3, 221232800, 2252, 18, 0.64, 52.5259477, 13.3143361, 63.46, 0.02778489, 210.2564, 0.007, 0, 1
GPS, 85277953, 0, 3, 221233000, 2252, 18, 0.64, 52.5259477, 13.3143361, 63.46, 0.02267157, 138.5763, -0.011, 0, 1
GPS, 85498212, 0, 3, 221233200, 2252, 18, 0.64, 52.5259476, 13.3143361, 63.45, 0.03801316, 296.5651, -0.02, 0, 1
GPS, 85698179, 0, 3, 221233400, 2252, 18, 0.64, 52.5259476, 13.3143361, 63.44, 0.03352611, 72.64597, -0.072, 0, 1
GPS, 85898134, 0, 3, 221233600, 2252, 18, 0.64, 52.5259475, 13.3143361, 63.44, 0.02505993, 331.3896, -0.031, 0, 1
GPS, 86098176, 0, 3, 221233800, 2252, 18, 0.64, 52.5259475, 13.3143361, 63.43, 0.03640055, 344.0546, -0.002, 0, 1
GPS, 86298266, 0, 3, 221234000, 2252, 18, 0.64, 52.5259475, 13.3143361, 63.44, 0.01414214, 45, -0.063, 0, 1
GPS, 86498127, 0, 3, 221234200, 2252, 18, 0.64, 52.5259475, 13.3143361, 63.44, 0.02213595, 161.565, -0.083, 0, 1
GPS, 86677976, 0, 3, 221234400, 2252, 18, 0.64, 52.5259474, 13.3143361, 63.43, 0.002236068, 153.435, -0.057, 0, 1
GPS, 86898159, 0, 3, 221234600, 2252, 18, 0.64, 52.5259473, 13.3143361, 63.44, 0.01969772, 23.96249, 0.059, 0, 1
GPS, 87098156, 0, 3, 221234800, 2252, 18, 0.64, 52.5259473, 13.3143361, 63.43, 0.00509902, 101.3099, 0.01, 0, 1
GPS, 87298192, 0, 3, 221235000, 2252, 18, 0.64, 52.5259473, 13.3143361, 63.43, 0.00781025, 39.80557, -0.074, 0, 1
GPS, 87498251, 0, 3, 221235200, 2252, 18, 0.64, 52.5259473, 13.3143361, 63.43, 0.02002499, 357.1376, -0.013, 0, 1
GPS, 87698142, 0, 3, 221235400, 2252, 18, 0.64, 52.5259472, 13.3143361, 63.42, 0.007071068, 45, -0.005, 0, 1
GPS, 87898160, 0, 3, 221235600, 2252, 18, 0.64, 52.5259472, 13.3143361, 63.42, 0.008544004, 200.5561, -0.052, 0, 1
GPS, 88077974, 0, 3, 221235800, 2252, 18, 0.64, 52.5259471, 13.3143361, 63.42, 0.03361547, 120.3791, 0.027, 0, 1
GPS, 88298166, 0, 3, 221236000, 2252, 18, 0.64, 52.5259471, 13.3143361, 63.43, 0.024, 270, -0.009000001, 0, 1
GPS, 88498216, 0, 3, 221236200, 2252, 18, 0.64, 52.5259471, 13.3143361, 63.42, 0.02707397, 355.7636, -0.07600001, 0, 1
GPS, 88698221, 0, 3, 221236400, 2252, 18, 0.64, 52.5259471, 13.314336, 63.42, 0.02334524, 223.2643, 0.01, 0, 1
GPS, 88898268, 0, 3, 221236600, 2252, 18, 0.64, 52.525947, 13.314336, 63.42, 0.01897367, 71.56505, -0.072, 0, 1
GPS, 89098169, 0, 3, 221236800, 2252, 18, 0.64, 52.525947, 13.3143361, 63.42, 0.03807887, 60.06849, -0.098, 0, 1
GPS, 89298130, 0, 3, 221237000, 2252, 18, 0.64, 52.525947, 13.3143361, 63.43, 0.02302173, 325.6197, -0.018, 0, 1
GPS, 89498162, 0, 3, 221237200, 2252, 18, 0.64, 52.525947, 13.314336, 63.44, 0.0380526, 183.0128, -0.016, 0, 1
GPS, 89698174, 0, 3, 221237400, 2252, 18, 0.64, 52.5259469, 13.314336, 63.44, 0.03138471, 149.3493, -0.09500001, 0, 1
GPS, 89898208, 0, 3, 221237600, 2252, 18, 0.64, 52.5259469, 13.3143361, 63.43, 0.002236068, 153.435, 0.066, 0, 1
GPS, 90098198, 0, 3, 221237800, 2252, 18, 0.64, 52.5259468, 13.3143361, 63.42, 0.02140094, 142.5947, -0.019, 0, 1
GPS, 90318248, 0, 3, 221238000, 2252, 18, 0.64, 52.5259468, 13.3143361, 63.42, 0.02039608, 168.6901, -0.079, 0, 1
GPS, 90498225, 0, 3, 221238200, 2252, 18, 0.64, 52.5259467, 13.3143361, 63.43, 0.01843909, 139.3987, 0.005, 0, 1
GPS, 90698173, 0, 3, 221238400, 2252, 18, 0.64, 52.5259467, 13.3143361, 63.42, 0.013, 90, -0.048, 0, 1
GPS, 90898124, 0, 3, 221238600, 2252, 18, 0.64, 52.5259467, 13.3143361, 63.42, 0.01392839, 248.9625, -0.06900001, 0, 1
GPS, 91098170, 0, 3, 221238800, 2252, 18, 0.64, 52.5259466, 13.314336, 63.41, 0.02789265, 165.4655, -0.08800001, 0, 1
GPS, 91298133, 0, 3, 221239000, 2252, 18, 0.64, 52.5259466, 13.314336, 63.41, 0.03190611, 237.8043, -0.087, 0, 1
GPS, 91498163, 0, 3, 221239200, 2252, 18, 0.64, 52.5259466, 13.3143359, 63.41, 0.05063596, 279.0903, 0.012, 0, 1
GPS, 91698252, 0, 3, 221239400, 2252, 18, 0.64, 52.5259466, 13.3143358, 63.41, 0.04569464, 23.19859, -0.097, 0, 1
GPS, 91898191, 0, 3, 221239600, 2252, 18, 0.64, 52.5259467, 13.3143358, 63.41, 0.009000001, 90, -0.008, 0, 1
GPS, 92077903, 0, 3, 221239800, 2252, 18, 0.64, 52.5259467, 13.3143358, 63.4, 0.02256103, 167.1957, -0.047, 0, 1
GPS, 92298151, 0, 3, 221240000, 2252, 18, 0.64, 52.5259466, 13.3143358, 63.39, 0.01208305, 335.5561, 0.005, 0, 1
GPS, 92498129, 0, 3, 221240200, 2252, 18, 0.64, 52.5259466, 13.3143357, 63.36, 0.01920937, 218.6598, 0.047, 0, 1
GPS, 92698153, 0, 3, 221240400, 2252, 18, 0.64, 52.5259466, 13.3143357, 63.35, 0.01523155, 113.1986, -0.032, 0, 1
GPS, 92898188, 0, 3, 221240600, 2252, 18, 0.64, 52.5259466, 13.3143357, 63.34, 0.03324154, 316.2189, -0.034, 0, 1
GPS, 93098186, 0, 3, 221240800, 2252, 18, 0.64, 52.5259466, 13.3143356, 63.33, 0.007071068, 188.1301, -0.146, 0, 1
GPS, 93298249, 0, 3, 221241000, 2252, 18, 0.64, 52.5259465, 13.3143356, 63.34, 0.01360147, 233.9726, -0.097, 0, 1
GPS, 93477912, 0, 3, 221241200, 2252, 18, 0.64, 52.5259465, 13.3143355, 63.34, 0.006708204, 333.4349, -0.103, 0, 1
GPS, 93698166, 0, 3, 221241400, 2252, 18, 0.64, 52.5259465, 13.3143355, 63.35, 0.02906888, 86.05481, -0.126, 0, 1
GPS, 93898124, 0, 3, 221241600, 2252, 18, 0.64, 52.5259465, 13.3143355, 63.36, 0.03330165, 221.3478, -0.052, 0, 1
GPS, 94098150, 0, 3, 221241800, 2252, 18, 0.64, 52.5259464, 13.3143355, 63.35, 0.01612452, 150.2551, -0.029, 0, 1
GPS, 94298159, 0, 3, 221242000, 2252, 18, 0.64, 52.5259464, 13.3143355, 63.35, 0.005, 126.8699, -0.142, 0, 1
GPS, 94498125, 0, 3, 221242200, 2252, 18, 0.64, 52.5259464, 13.3143355, 63.36, 0.007071068, 261.8699, -0.033, 0, 1
GPS, 94698196, 0, 3, 221242400, 2252, 18, 0.64, 52.5259464, 13.3143355, 63.34, 0.01868154, 74.47588, -0.112, 0, 1
GPS, 94898164, 0, 3, 221242600, 2252, 18, 0.64, 52.5259464, 13.3143355, 63.34, 0.01476482, 61.69924, -0.022, 0, 1
GPS, 95098171, 0, 3, 221242800, 2252, 18, 0.64, 52.5259464, 13.3143355, 63.32, 0.03623534, 207.9795, -0.066, 0, 1
GPS, 95298180, 0, 3, 221243000, 2252, 18, 0.64, 52.5259464, 13.3143354, 63.32, 0.01529706, 281.3099, -0.053, 0, 1
GPS, 95498197, 0, 3, 221243200, 2252, 18, 0.64, 52.5259464, 13.3143354, 63.34, 0.02147091, 27.75854, -0.035, 0, 1
GPS, 95698157, 0, 3, 221243400, 2252, 18, 0.64, 52.5259465, 13.3143355, 63.35, 0.02220361, 97.76516, 0.022, 0, 1
GPS, 95898123, 0, 3, 221243600, 2252, 18, 0.64, 52.5259465, 13.3143355, 63.33, 0.02758623, 43.5312, -0.041, 0, 1
GPS, 96098125, 0, 3, 221243800, 2252, 18, 0.64, 52.5259465, 13.3143356, 63.32, 0.05793963, 158.7495, -0.08400001, 0, 1
GPS, 96298156, 0, 3, 221244000, 2252, 18, 0.64, 52.5259465, 13.3143356, 63.33, 0.01843909, 12.52881, 0.015, 0, 1
GPS, 96498156, 0, 3, 221244200, 2252, 18, 0.64, 52.5259466, 13.3143356, 63.31, 0.01627882, 280.6197, -0.022, 0, 1
GPS, 96698165, 0, 3, 221244400, 2252, 18, 0.64, 52.5259466, 13.3143355, 63.28, 0.03679674, 137.2026, -0.075, 0, 1
GPS, 96898219, 0, 3, 221244600, 2252, 18, 0.64, 52.5259467, 13.3143355, 63.29, 0.0491935, 296.5651, -0.003, 0, 1
GPS, 97098255, 0, 3, 221244800, 2252, 18, 0.64, 52.5259468, 13.3143355, 63.3, 0.02024846, 69.77514, -0.01, 0, 1
GPS, 97298209, 0, 3, 221245000, 2252, 18, 0.64, 52.5259468, 13.3143355, 63.3, 0.01131371, 45, -0.061, 0, 1
GPS, 97498128, 0, 3, 221245200, 2252, 18, 0.64, 52.5259469, 13.3143355, 63.31, 0.02517936, 263.1572, 0.026, 0, 1
GPS, 97677955, 0, 3, 221245400, 2252, 18, 0.64, 52.525947, 13.3143354, 63.3, 0.003605551, 213.6901, -0.057, 0, 1
GPS, 97898190, 0, 3, 221245600, 2252, 18, 0.64, 52.5259471, 13.3143354, 63.29, 0.02906888, 93.94518, -0.036, 0, 1
GPS, 98098175, 0, 3, 221245800, 2252, 18, 0.64, 52.5259472, 13.3143354, 63.29, 0.02039608, 11.30993, -0.121, 0, 1
GPS, 98298188, 0, 3, 221246000, 2252, 18, 0.64, 52.5259474, 13.3143354, 63.3, 0.04123106, 14.03624, -0.097, 0, 1
GPS, 98498171, 0, 3, 221246200, 2252, 18, 0.64, 52.5259475, 13.3143354, 63.29, 0.006403125, 141.3402, -0.014, 0, 1
GPS, 98698152, 0, 3, 221246400, 2252, 18, 0.64, 52.5259476, 13.3143354, 63.28, 0.026, 67.38013, -0.029, 0, 1
GPS, 98877943, 0, 3, 221246600, 2252, 18, 0.64, 52.5259477, 13.3143354, 63.28, 0.008544005, 290.5561, -0.074, 0, 1
GPS, 99098132, 0, 3, 221246800, 2252, 18, 0.64, 52.5259479, 13.3143354, 63.28, 0.03894868, 330.8025, -0.06900001, 0, 1
GPS, 99298150, 0, 3, 221247000, 2252, 18, 0.64, 52.5259479, 13.3143353, 63.27, 0.03104835, 165.0686, -0.07700001, 0, 1
GPS, 99498197, 0, 3, 221247200, 2252, 18, 0.64, 52.525948, 13.3143354, 63.27, 0.03195309, 110.1363, -0.142, 0, 1
GPS, 99698169, 0, 3, 221247400, 2252, 18, 0.64, 52.5259481, 13.3143354, 63.28, 0.03361547, 329.6209, -0.041, 0, 1
GPS, 99898129, 0, 3, 221247600, 2252, 18, 0.64, 52.5259483, 13.3143353, 63.27, 0.02647641, 10.88553, -0.04, 0, 1
GPS, 100098209, 0, 3, 221247800, 2252, 18, 0.64, 52.5259485, 13.3143354, 63.25, 0.03577709, 26.56505, 0.014, 0, 1
GPS, 100277895, 0, 3, 221248000, 2252, 18, 0.64, 52.5259487, 13.3143355, 63.23, 0.02137756, 79.2157, -0.063, 0, 1
GPS, 100498159, 0, 3, 221248200, 2252, 18, 0.64, 52.5259488, 13.3143355, 63.22, 0.02886174, 75.96375, -0.062, 0, 1
GPS, 100698151, 0, 3, 221248400, 2252, 18, 0.64, 52.5259489, 13.3143355, 63.22, 0.005830952, 239.0363, -0.032, 0, 1
GPS, 100898143, 0, 3, 221248600, 2252, 18, 0.64, 52.525949, 13.3143355, 63.22, 0.01104536, 174.8056, -0.032, 0, 1
GPS, 101098180, 0, 3, 221248800, 2252, 18, 0.64, 52.5259491, 13.3143355, 63.21, 0.023, 0, -0.013, 0, 1
GPS, 101298213, 0, 3, 221249000, 2252, 18, 0.64, 52.5259492, 13.3143355, 63.2, 0.02683282, 26.56505, -0.133, 0, 1
GPS, 101498255, 0, 3, 221249200, 2252, 18, 0.64, 52.5259493, 13.3143355, 63.2, 0.03705402, 183.0941, 0.022, 0, 1
GPS, 101677945, 0, 3, 221249400, 2252, 18, 0.64, 52.5259494, 13.3143355, 63.19, 0.02088062, 16.69924, -0.014, 0, 1
GPS, 101898146, 0, 3, 221249600, 2252, 18, 0.64, 52.5259495, 13.3143356, 63.19, 0.003162278, 18.43495, -0.067, 0, 1
GPS, 102098142, 0, 3, 221249800, 2252, 18, 0.64, 52.5259496, 13.3143355, 63.17, 0.004123106, 284.0363, -0.045, 0, 1
GPS, 102298146, 0, 3, 221250000, 2252, 18, 0.64, 52.5259497, 13.3143355, 63.17, 0.01664332, 302.7352, -0.024, 0, 1
GPS, 102498247, 0, 3, 221250200, 2252, 18, 0.64, 52.5259497, 13.3143355, 63.18, 0.03023244, 235.7843, -0.016, 0, 1
GPS, 102698166, 0, 3, 221250400, 2252, 18, 0.64, 52.5259498, 13.3143355, 63.17, 0.01941649, 168.1113, -0.034, 0, 1
GPS, 102898193, 0, 3, 221250600, 2252, 18, 0.64, 52.5259498, 13.3143355, 63.16, 0.02435159, 70.82098, -0.061, 0, 1
GPS, 103077922, 0, 3, 221250800, 2252, 18, 0.64, 52.5259499, 13.3143355, 63.15, 0.02022375, 81.46923, -0.063, 0, 1
GPS, 103298176, 0, 3, 221251000, 2252, 18, 0.64, 52.5259499, 13.3143355, 63.15, 0.02088062, 253.3008, -0.01, 0, 1
GPS, 103498170, 0, 3, 221251200, 2252, 18, 0.64, 52.52595, 13.3143355, 63.15, 0.008602326, 144.4623, 0.002, 0, 1
GPS, 103698167, 0, 3, 221251400, 2252, 18, 0.64, 52.52595, 13.3143355, 63.14, 0.02745906, 123.1113, -0.012, 0, 1
GPS, 103898135, 0, 3, 221251600, 2252, 18, 0.64, 52.52595, 13.3143355, 63.11, 0.01746425, 156.3706, -0.09100001, 0, 1
GPS, 104098208, 0, 3, 221251800, 2252, 18, 0.64, 52.5259499, 13.3143355, 63.12, 0.022, 180, 0.062, 0, 1
GPS, 104298240, 0, 3, 221252000, 2252, 18, 0.64, 52.5259499, 13.3143355, 63.1, 0.02720294, 126.0274, -0.064, 0, 1
GPS, 104498155, 0, 3, 221252200, 2252, 18, 0.64, 52.5259499, 13.3143355, 63.1, 0.009433982, 327.9946, -0.027, 0, 1
GPS, 104698189, 0, 3, 221252400, 2252, 18, 0.64, 52.5259499, 13.3143355, 63.1, 0.02617251, 186.582, -0.049, 0, 1
GPS, 104898163, 0, 3, 221252600, 2252, 18, 0.64, 52.5259499, 13.3143355, 63.09, 0.01788854, 63.43495, -0.06500001, 0, 1
GPS, 105098162, 0, 3, 221252800, 2252, 18, 0.64, 52.5259499, 13.3143355, 63.09, 0.02773085, 154.359, -0.008, 0, 1
GPS, 105298135, 0, 3, 221253000, 2252, 18, 0.64, 52.5259498, 13.3143355, 63.09, 0.02473863, 75.96375, -0.046, 0, 1
GPS, 105498225, 0, 3, 221253200, 2252, 18, 0.64, 52.5259498, 13.3143355, 63.1, 0.01640122, 217.5686, -0.017, 0, 1
GPS, 105677970, 0, 3, 221253400, 2252, 18, 0.64, 52.5259498, 13.3143355, 63.09, 0.01627882, 79.38034, -0.112, 0, 1
GPS, 105898230, 0, 3, 221253600, 2252, 18, 0.64, 52.5259498, 13.3143355, 63.09, 0.007615773, 293.1986, 0.029, 0, 1
GPS, 106098268, 0, 3, 221253800, 2252, 18, 0.64, 52.5259498, 13.3143355, 63.09, 0.02109502, 301.4296, 0.041, 0, 1
GPS, 106298160, 0, 3, 221254000, 2252, 18, 0.64, 52.5259497, 13.3143354, 63.08, 0.009055386, 83.65981, -0.039, 0, 1
GPS, 106498115, 0, 3, 221254200, 2252, 18, 0.64, 52.5259497, 13.3143354, 63.07, 0.01726268, 10.00798, -0.058, 0, 1
GPS, 106698166, 0, 3, 221254400, 2252, 18, 0.64, 52.5259497, 13.3143353, 63.07, 0.01414214, 278.1301, -0.044, 0, 1
GPS, 106898145, 0, 3, 221254600, 2252, 18, 0.64, 52.5259497, 13.3143353, 63.06, 0.01341641, 206.565, 0.021, 0, 1
GPS, 107077951, 0, 3, 221254800, 2252, 18, 0.64, 52.5259497, 13.3143353, 63.06, 0.02220361, 54.16235, -0.014, 0, 1
GPS, 107298160, 0, 3, 221255000, 2252, 18, 0.64, 52.5259496, 13.3143353, 63.05, 0.03104835, 194.9314, -0.01, 0, 1
GPS, 107498199, 0, 3, 221255200, 2252, 18, 0.64, 52.5259495, 13.3143352, 63.04, 0.03157531, 169.0459, -0.046, 0, 1
GPS, 107698207, 0, 3, 221255400, 2252, 18, 0.64, 52.5259495, 13.3143352, 63.05, 0.04326662, 33.69006, -0.067, 0, 1
GPS, 107898240, 0, 3, 221255600, 2252, 18, 0.64, 52.5259495, 13.3143353, 63.05, 0.085, 53.1301, -0.141, 0, 1
GPS, 108098149, 0, 3, 221255800, 2252, 18, 0.64, 52.5259496, 13.3143354, 63.05, 0.05920305, 74.32047, -0.223, 0, 1
GPS, 108318248, 0, 3, 221256000, 2252, 18, 0.64, 52.5259495, 13.3143355, 63.05, 0.04204759, 115.3462, -0.033, 0, 1
GPS, 108477969, 0, 3, 221256200, 2252, 18, 0.64, 52.5259494, 13.3143355, 63.04, 0.01216552, 350.5377, -0.07, 0, 1
GPS, 108698142, 0, 3, 221256400, 2252, 18, 0.64, 52.5259494, 13.3143354, 63.04, 0.01612452, 330.2551, -0.036, 0, 1
GPS, 108898169, 0, 3, 221256600, 2252, 18, 0.64, 52.5259494, 13.3143355, 63.05, 0.0462277, 128.8534, -0.007, 0, 1
GPS, 109098188, 0, 3, 221256800, 2252, 18, 0.64, 52.5259493, 13.3143355, 63.04, 0.02692582, 15.06849, -0.08000001, 0, 1
GPS, 109298135, 0, 3, 221257000, 2252, 18, 0.64, 52.5259494, 13.3143354, 63.04, 0.06942622, 318.5035, -0.056, 0, 1
GPS, 109498189, 0, 3, 221257200, 2252, 18, 0.64, 52.5259495, 13.3143353, 63.05, 0.06400781, 359.1048, -0.14, 0, 1
GPS, 109698271, 0, 3, 221257400, 2252, 18, 0.64, 52.5259495, 13.3143353, 63.06, 0.01941649, 55.49147, 0.041, 0, 1
GPS, 109877925, 0, 3, 221257600, 2252, 18, 0.64, 52.5259495, 13.3143353, 63.05, 0.03036445, 342.7585, -0.039, 0, 1
GPS, 110098165, 0, 3, 221257800, 2252, 18, 0.64, 52.5259495, 13.3143353, 63.03, 0.03498571, 30.96376, -0.057, 0, 1
GPS, 110298133, 0, 3, 221258000, 2252, 18, 0.64, 52.5259495, 13.3143352, 63.03, 0.03041381, 279.4623, 0.002, 0, 1
GPS, 110498161, 0, 3, 221258200, 2252, 18, 0.64, 52.5259495, 13.3143352, 63.03, 0.04701064, 51.91122, -0.14, 0, 1
GPS, 110698150, 0, 3, 221258400, 2252, 18, 0.64, 52.5259495, 13.3143353, 63.06, 0.034, 180, -0.004, 0, 1
GPS, 110898147, 0, 3, 221258600, 2252, 18, 0.64, 52.5259494, 13.3143352, 63.03, 0.01565248, 206.565, -0.151, 0, 1
GPS, 111098140, 0, 3, 221258800, 2252, 18, 0.64, 52.5259494, 13.3143352, 63.02, 0.0230868, 162.3499, -0.125, 0, 1
GPS, 111298167, 0, 3, 221259000, 2252, 18, 0.64, 52.5259493, 13.3143352, 63.01, 0.04780168, 74.21925, -0.061, 0, 1
GPS, 111498134, 0, 3, 221259200, 2252, 18, 0.64, 52.5259493, 13.3143353, 63, 0.0416173, 125.2176, -0.035, 0, 1
GPS, 111698145, 0, 3, 221259400, 2252, 18, 0.64, 52.5259492, 13.3143353, 62.99, 0.01802776, 176.8202, -0.035, 0, 1
GPS, 111898157, 0, 3, 221259600, 2252, 18, 0.64, 52.5259492, 13.3143353, 62.98, 0.03905125, 92.93567, -0.139, 0, 1
GPS, 112098155, 0, 3, 221259800, 2252, 18, 0.64, 52.5259491, 13.3143354, 62.99, 0.02842534, 219.2894, -0.045, 0, 1
GPS, 112298192, 0, 3, 221260000, 2252, 18, 0.64, 52.525949, 13.3143353, 62.98, 0.03228003, 163.8108, -0.021, 0, 1
GPS, 112477931, 0, 3, 221260200, 2252, 18, 0.64, 52.525949, 13.3143353, 62.97, 0.01029563, 60.94539, -0.108, 0, 1
GPS, 112698198, 0, 3, 221260400, 2252, 18, 0.64, 52.525949, 13.3143353, 62.96, 0.01838478, 202.3801, -0.019, 0, 1
GPS, 112898166, 0, 3, 221260600, 2252, 18, 0.64, 52.525949, 13.3143352, 62.94, 0.009848858, 336.0375, -0.052, 0, 1
GPS, 113098156, 0, 3, 221260800, 2252, 18, 0.64, 52.5259489, 13.3143352, 62.96, 0.01603122, 93.57632, 0.049, 0, 1
GPS, 113298218, 0, 3, 221261000, 2252, 18, 0.64, 52.5259489, 13.3143352, 62.95, 0.01140175, 232.125, -0.012, 0, 1
